[
    {
        "id": 1,
        "name": "Roman Theatre of Augusta Emerita",
        "city": "Mérida",
        "province": "Badajoz",
        "lat": 38.9158,
        "lng": -6.3375,
        "period": "Roman",
        "description": "Built 16-15 BC by Marcus Vipsanius Agrippa, seats 6,000 spectators. Part of UNESCO World Heritage ensemble with adjacent amphitheatre. Exceptional preservation with original scaenae frons.",
        "wikipediaUrl": "https://en.wikipedia.org/wiki/Augusta_Emerita"
    },
    {
        "id": 2,
        "name": "Roman Amphitheatre of Augusta Emerita",
        "city": "Mérida",
        "province": "Badajoz",
        "lat": 38.9155,
        "lng": -6.3378,
        "period": "Roman",
        "description": "Dedicated in 8 BC for gladiatorial contests, seats 15,000. Located adjacent to the Roman theatre near the city wall. Underground areas visible.",
        "wikipediaUrl": "https://en.wikipedia.org/wiki/Augusta_Emerita"
    },
    {
        "id": 3,
        "name": "Roman Bridge of Augusta Emerita",
        "city": "Mérida",
        "province": "Badajoz",
        "lat": 38.9144,
        "lng": -6.3458,
        "period": "Roman",
        "description": "Spans 792m over Guadiana River, one of the largest surviving Roman bridges. Connects to Decumanus Maximus, still in use today.",
        "wikipediaUrl": "https://en.wikipedia.org/wiki/Augusta_Emerita"
    },
    {
        "id": 4,
        "name": "Temple of Diana, Mérida",
        "city": "Mérida",
        "province": "Badajoz",
        "lat": 38.9169,
        "lng": -6.3389,
        "period": "Roman",
        "description": "Late 1st century BC temple dedicated to Imperial cult. Municipal building of the city forum with preserved columns and architraves.",
        "wikipediaUrl": "https://en.wikipedia.org/wiki/Augusta_Emerita"
    },
    {
        "id": 5,
        "name": "Los Milagros Aqueduct",
        "city": "Mérida",
        "province": "Badajoz",
        "lat": 38.9239,
        "lng": -6.3542,
        "period": "Roman",
        "description": "Miraculous Aqueduct bringing water from Proserpina Dam 5km away. Spectacular arched structure with preserved pillars up to 25m high.",
        "wikipediaUrl": "https://en.wikipedia.org/wiki/Augusta_Emerita"
    },
    {
        "id": 6,
        "name": "Roman Amphitheatre of Tarraco",
        "city": "Tarragona",
        "province": "Tarragona",
        "lat": 41.1147,
        "lng": 1.2601,
        "period": "Roman",
        "description": "Located near the seashore, measures 46m long. Well-preserved structure with associated basilica and Romanesque church remains. UNESCO World Heritage Site.",
        "wikipediaUrl": "https://en.wikipedia.org/wiki/Tarraco"
    },
    {
        "id": 7,
        "name": "Aqueduct de les Ferreres (Pont del Diable)",
        "city": "Tarragona",
        "province": "Tarragona",
        "lat": 41.1458,
        "lng": 1.1975,
        "period": "Roman",
        "description": "Devil's Bridge crosses valley 4km from Tarragona. Two-tiered Roman aqueduct 21m long, exceptional engineering preserved over 2000 years.",
        "wikipediaUrl": "https://en.wikipedia.org/wiki/Tarraco"
    },
    {
        "id": 8,
        "name": "Provincial Forum of Tarraco",
        "city": "Tarragona",
        "province": "Tarragona",
        "lat": 41.1189,
        "lng": 1.2445,
        "period": "Roman",
        "description": "Administrative center built at the top of the city during Flavian period (70-180 AD). Capital of Hispania Citerior province.",
        "wikipediaUrl": "https://en.wikipedia.org/wiki/Tarraco"
    },
    {
        "id": 9,
        "name": "Segóbriga Archaeological Park",
        "city": "Saelices",
        "province": "Cuenca",
        "lat": 39.8851,
        "lng": -2.8130,
        "period": "Roman",
        "description": "Caput Celtiberiae with theatre, amphitheatre (75m, capacity 5,500), Roman baths, forum, and city walls. Prospered from lapis specularis mining.",
        "wikipediaUrl": "https://en.wikipedia.org/wiki/Segobriga"
    },
    {
        "id": 10,
        "name": "Itálica Archaeological Site",
        "city": "Santiponce",
        "province": "Sevilla",
        "lat": 37.4439,
        "lng": -6.0467,
        "period": "Roman",
        "description": "First Roman settlement in Spain (206 BC), birthplace of Trajan and Hadrian. Third largest amphitheatre in Empire (25,000 seats), Traianeum temple, exceptional mosaics.",
        "wikipediaUrl": "https://en.wikipedia.org/wiki/Italica"
    },
    {
        "id": 11,
        "name": "Empúries Archaeological Site",
        "city": "L'Escala",
        "province": "Girona",
        "lat": 42.1364,
        "lng": 3.1206,
        "period": "Roman",
        "description": "Entry point of Roman invasion (218 BC). Preserves Greek Emporion and Roman Emporiae with walls, forum, houses and mosaics.",
        "wikipediaUrl": "https://en.wikipedia.org/wiki/Emp%C3%BAries"
    },
    {
        "id": 12,
        "name": "Baelo Claudia",
        "city": "Tarifa",
        "province": "Cádiz",
        "lat": 36.0886,
        "lng": -5.7708,
        "period": "Roman",
        "description": "Coastal Roman city with basilica, theatre, temples, and fish-salting factory. Shows African building influences, exceptional preservation.",
        "wikipediaUrl": "https://en.wikipedia.org/wiki/Baelo_Claudia"
    },
    {
        "id": 13,
        "name": "Las Médulas",
        "city": "Ponferrada",
        "province": "León",
        "lat": 42.4694,
        "lng": -6.7708,
        "period": "Roman",
        "description": "Largest Roman gold mine in the Empire. Spectacular red landscape created by hydraulic mining, preserved aqueducts, mining tunnels. UNESCO World Heritage Site.",
        "wikipediaUrl": "https://en.wikipedia.org/wiki/Las_M%C3%A9dulas"
    },
    {
        "id": 14,
        "name": "Numantia",
        "city": "Garray",
        "province": "Soria",
        "lat": 41.7833,
        "lng": -2.4456,
        "period": "Celtiberian-Roman",
        "description": "Famous Celtiberian city that resisted Roman siege until 133 BC. Symbol of indigenous resistance with preserved walls and foundations.",
        "wikipediaUrl": "https://en.wikipedia.org/wiki/Numantia"
    },
    {
        "id": 15,
        "name": "Roman Theatre of Caesaraugusta",
        "city": "Zaragoza",
        "province": "Zaragoza",
        "lat": 41.6555,
        "lng": -0.8769,
        "period": "Roman",
        "description": "1st century theatre in Augustus' foundation. Preserved underground museum showing original structure with seating for 6,000.",
        "wikipediaUrl": "https://en.wikipedia.org/wiki/Zaragoza"
    },
    {
        "id": 16,
        "name": "Roman Walls of Lugo",
        "city": "Lugo",
        "province": "Lugo",
        "lat": 43.0130,
        "lng": -7.5564,
        "period": "Roman",
        "description": "Best-preserved Roman wall in the world, 2.2km perimeter, completely walkable. UNESCO World Heritage Site from 3rd century AD.",
        "wikipediaUrl": "https://en.wikipedia.org/wiki/Lugo"
    },
    {
        "id": 17,
        "name": "Basilica of San Juan Bautista",
        "city": "Baños de Cerrato",
        "province": "Palencia",
        "lat": 41.9167,
        "lng": -4.3167,
        "period": "Visigothic",
        "description": "Built by King Recceswinth in 661 AD. Three-nave basilica with transept, horseshoe arches, rich sculptural decoration. Oldest dated Visigothic church.",
        "wikipediaUrl": "https://en.wikipedia.org/wiki/Basilica_of_San_Juan_Bautista"
    },
    {
        "id": 18,
        "name": "Church of San Pedro de la Nave",
        "city": "El Campillo",
        "province": "Zamora",
        "lat": 41.1872,
        "lng": -5.9647,
        "period": "Visigothic",
        "description": "Late 7th century church from King Égica's reign. Greek cross plan with decorated capitals depicting biblical scenes, relocated stone by stone.",
        "wikipediaUrl": "https://en.wikipedia.org/wiki/Visigothic_architecture"
    },
    {
        "id": 19,
        "name": "Hermitage of Santa María de Lara",
        "city": "Quintanilla de las Viñas",
        "province": "Burgos",
        "lat": 42.1919,
        "lng": -3.6544,
        "period": "Visigothic",
        "description": "8th century hermitage with preserved transept and sanctuary. Blue-grey stone blocks with reliefs of Christ and Virgin Mary, exceptional sculptural decoration.",
        "wikipediaUrl": "https://en.wikipedia.org/wiki/Visigothic_architecture"
    },
    {
        "id": 20,
        "name": "Recópolis",
        "city": "Zorita de los Canes",
        "province": "Guadalajara",
        "lat": 40.3219,
        "lng": -2.8931,
        "period": "Visigothic",
        "description": "Founded 578 AD by King Liuvigild. One of only two new cities built in Western Europe (5th-8th centuries). Preserved palace, basilica, walls with towers.",
        "wikipediaUrl": "https://en.wikipedia.org/wiki/Reccopolis"
    },
    {
        "id": 21,
        "name": "Roman Villa of Carranque",
        "city": "Carranque",
        "province": "Toledo",
        "lat": 40.1708,
        "lng": -3.8969,
        "period": "Roman",
        "description": "Late 4th century villa complex possibly of Maternus Cinigius. Exceptional mosaics depicting Oceanus, Hylas and Nymphs, 32 marble columns from emperor's quarries.",
        "wikipediaUrl": "https://en.wikipedia.org/wiki/Carranque"
    },
    {
        "id": 22,
        "name": "Roman Aqueduct of Segovia",
        "city": "Segovia",
        "province": "Segovia",
        "lat": 40.9481,
        "lng": -4.1203,
        "period": "Roman",
        "description": "Most famous Roman aqueduct in Spain, 728m long with 165 arches reaching 28m high. Built without mortar, still standing after 2000 years.",
        "wikipediaUrl": "https://en.wikipedia.org/wiki/Aqueduct_of_Segovia"
    },
    {
        "id": 23,
        "name": "Tower of Hercules",
        "city": "A Coruña",
        "province": "A Coruña",
        "lat": 43.3867,
        "lng": -8.4056,
        "period": "Roman",
        "description": "Oldest surviving Roman lighthouse in the world, 2nd century AD. 55m high, still functioning, UNESCO World Heritage Site with original Roman core.",
        "wikipediaUrl": "https://en.wikipedia.org/wiki/Tower_of_Hercules"
    },
    {
        "id": 24,
        "name": "Crypt of San Antolín",
        "city": "Palencia",
        "province": "Palencia",
        "lat": 42.0097,
        "lng": -4.5278,
        "period": "Visigothic",
        "description": "7th century Visigothic crypt beneath Palencia Cathedral. Preserved horseshoe arch, original capitals, unique underground sanctuary.",
        "wikipediaUrl": "https://en.wikipedia.org/wiki/Visigothic_architecture"
    }
]